City_ID,City,Lat,Lng,Max Temp,Humidity,Cloudiness,Wind Speed,Country,Date
0,puerto ayora,-0.7393,-90.3518,22.53,96,98,2.35,EC,1715414179
1,shizunai-furukawacho,42.3339,142.3669,13.08,71,72,4.42,JP,1715414179
2,koryazhma,61.3143,47.1691,-0.05,79,100,0.4,RU,1715414180
3,hotan,37.0997,79.9269,29.55,6,100,3.4,CN,1715414180
4,wailua homesteads,22.0669,-159.378,19.3,88,28,0.89,US,1715414181
5,margaret river,-33.95,115.0667,18.83,52,0,2.23,AU,1715414181
6,fortuna,40.5982,-124.1573,13.14,97,0,3.09,US,1715414182
7,bethel,41.3712,-73.414,7.57,88,100,0.45,US,1715414182
8,ribeira grande,38.5167,-28.7,18.22,94,75,5.14,PT,1715414054
9,bredasdorp,-34.5322,20.0403,16.61,52,4,4.32,ZA,1715414183
10,trairi,-3.2778,-39.2689,23.7,94,77,3.0,BR,1715414184
11,chapada dos guimaraes,-15.4606,-55.7497,18.81,60,97,1.97,BR,1715414184
12,waitangi,-43.9535,-176.5597,9.34,87,100,4.92,NZ,1715414184
13,port lincoln,-34.7333,135.8667,15.38,75,99,2.68,AU,1715414185
14,albany,42.6001,-73.9662,9.96,93,100,0.45,US,1715414089
15,dakhla,23.6848,-15.958,19.01,82,40,10.29,EH,1715414187
16,papatowai,-46.5619,169.4708,8.13,91,61,3.89,NZ,1715414187
17,tiksi,71.6872,128.8694,-2.27,91,100,3.8,RU,1715414187
18,san antonio de pale,-1.4014,5.6325,26.45,89,70,5.26,GQ,1715414188
19,viseu,40.661,-7.9097,17.13,73,0,0.84,PT,1715414188
20,puerto natales,-51.7236,-72.4875,-2.1,93,26,2.06,CL,1715414188
21,altai,46.3722,96.2583,20.55,10,45,5.38,MN,1715414189
22,invercargill,-46.4,168.35,8.9,96,57,2.24,NZ,1715414189
23,bogorodskoye,56.55,37.8833,5.7,64,75,5.78,RU,1715414189
24,copiapo,-27.3667,-70.3333,6.83,75,100,1.07,CL,1715414190
25,blackmans bay,-43.0167,147.3167,11.4,91,44,2.23,AU,1715414190
26,petropavlovsk-kamchatsky,53.0452,158.6483,3.33,95,75,6.0,RU,1715414003
27,kingston,17.997,-76.7936,28.53,79,20,1.54,JM,1715414185
28,sitka,57.0531,-135.33,5.51,86,100,0.74,US,1715414191
29,centenario do sul,-22.8211,-51.5953,18.15,63,53,1.84,BR,1715414192
30,port-aux-francais,-49.35,70.2167,5.04,75,76,11.45,TF,1715414192
31,whitehorse,60.7161,-135.0538,3.43,60,75,2.57,CA,1715414192
32,badagry,6.4167,2.8833,30.81,68,44,3.29,NG,1715414193
33,miri,4.4148,114.0089,32.08,70,40,3.09,MY,1715414062
34,cockburn town,21.4612,-71.1419,26.06,82,58,6.71,TC,1715414194
35,ceres,37.5949,-120.9577,19.83,73,0,1.98,US,1715414194
36,tralee,52.2704,-9.7026,14.43,74,12,2.88,IE,1715414194
37,yellowknife,62.456,-114.3525,3.01,100,100,10.29,CA,1715414195
38,udachny,66.4167,112.4,-3.64,62,100,2.24,RU,1715414195
39,daru,-9.0763,143.2092,26.67,86,85,5.49,PG,1715414196
40,bilibino,68.0546,166.4372,0.47,80,100,1.04,RU,1715414196
41,lihue,21.9789,-159.3672,19.64,88,30,3.33,US,1715414197
42,ushuaia,-54.8,-68.3,1.81,75,40,4.12,AR,1715414197
43,san antonio oeste,-40.7319,-64.9477,7.9,71,12,7.13,AR,1715414198
44,ilulissat,69.2167,-51.1,-8.32,85,100,1.46,GL,1715414198
45,jieshi,22.8134,115.8257,25.88,82,98,4.92,CN,1715414198
46,fisterra,42.9049,-9.2629,13.19,88,1,5.32,ES,1715414199
47,port elizabeth,-33.918,25.5701,19.5,62,0,8.75,ZA,1715414199
48,antsiranana,-12.2787,49.2917,28.42,54,75,7.2,MG,1715414200
49,terrace,54.5163,-128.6035,12.95,66,75,1.54,CA,1715414200
50,arraial do cabo,-22.9661,-42.0278,22.85,88,100,4.22,BR,1715414200
51,enewetak,11.3474,162.3373,27.45,76,100,7.36,MH,1715414201
52,almodovar del campo,38.7094,-4.1791,19.68,54,6,0.98,ES,1715414146
53,kodiak,57.79,-152.4072,3.73,87,100,3.09,US,1715414201
54,grytviken,-54.2811,-36.5092,-2.3,83,86,4.54,GS,1715414202
55,thompson,55.7435,-97.8558,8.09,76,75,1.03,CA,1715414202
56,punta arenas,-53.15,-70.9167,2.06,87,0,5.14,CL,1715414203
57,west island,-12.1568,96.8225,29.99,79,75,6.17,CC,1715414203
58,iqaluit,63.7506,-68.5145,-0.15,93,100,6.17,CA,1715414204
59,lebu,-37.6167,-73.65,8.12,87,82,2.88,CL,1715414204
60,college,64.8569,-147.8028,6.56,47,100,1.34,US,1715414204
61,olonkinbyen,70.9221,-8.7187,-0.76,75,54,4.19,SJ,1715414205
62,gamba,-2.65,10.0,28.05,80,77,2.21,GA,1715414205
63,hawaiian paradise park,19.5933,-154.9731,22.8,98,75,0.45,US,1715414205
64,adamstown,-25.066,-130.1015,21.9,81,99,6.74,PN,1715414206
65,veraval,20.9,70.3667,31.49,60,0,5.31,IN,1715414206
66,delcevo,41.9672,22.7694,16.07,56,43,4.5,MK,1715414207
67,benguela,-12.5763,13.4055,28.07,74,12,1.39,AO,1715414207
68,khovd,48.0056,91.6419,25.12,13,5,4.03,MN,1715414207
69,qaqortoq,60.7167,-46.0333,0.65,88,87,0.38,GL,1715414208
70,tateyama,34.9833,139.8667,19.82,70,6,8.07,JP,1715414208
71,remire-montjoly,4.9167,-52.2667,24.02,100,100,1.54,GF,1715414208
72,galle,6.0367,80.217,30.22,72,100,2.23,LK,1715414209
73,amqui,48.4638,-67.4313,1.93,93,48,1.75,CA,1715414209
74,keflavik,64.0049,-22.5624,8.95,100,100,6.69,IS,1715414209
75,archangelos,36.2149,28.1149,20.66,62,4,1.47,GR,1715414210
76,lumphat,13.4878,106.9816,40.31,26,100,1.83,KH,1715414210
77,san patricio,28.017,-97.5169,27.13,90,42,4.77,US,1715414210
78,la passe,45.5549,-0.8967,20.57,73,0,3.82,FR,1715414211
79,sofiyivka,48.0493,33.8746,18.49,45,20,3.99,UA,1715414211
80,mount gambier,-37.8333,140.7667,15.35,75,90,1.78,AU,1715414212
81,anadyr,64.75,177.4833,-0.72,80,75,0.0,RU,1715414212
82,pitimbu,-7.4706,-34.8086,23.33,75,77,2.4,BR,1715414212
83,floro,61.5996,5.0328,11.24,76,75,5.14,NO,1715414213
84,tarawa,1.419,172.984,30.05,74,75,3.6,KI,1715414213
85,campo formoso,-10.5075,-40.3214,19.29,95,53,1.45,BR,1715414213
86,pacific grove,36.6177,-121.9166,14.12,85,100,0.0,US,1715414214
87,glendive,47.1053,-104.7125,13.43,54,8,3.64,US,1715414214
88,nar'yan-mar,67.6713,53.087,-3.27,88,99,3.13,RU,1715414215
89,namibe,-15.1961,12.1522,24.09,71,0,1.25,AO,1715414215
90,nambucca heads,-30.65,153.0,16.11,90,100,3.73,AU,1715414215
91,greymouth,-42.4667,171.2,9.16,78,57,1.83,NZ,1715414216
92,flekkefjord,58.2971,6.6607,11.64,64,94,1.86,NO,1715414216
93,fada,9.5667,8.3,27.59,62,97,1.64,NG,1715414217
94,chonchi,-42.6128,-73.8092,5.07,96,41,0.27,CL,1715414217
95,kailua-kona,19.6406,-155.9956,22.38,96,70,0.45,US,1715414217
96,tres arroyos,-38.3739,-60.2798,6.83,91,95,3.03,AR,1715414218
97,crane,31.3974,-102.3501,17.81,69,65,7.79,US,1715414218
98,kristiansund,63.1115,7.732,9.03,87,100,2.06,NO,1715414218
99,longyearbyen,78.2186,15.6401,0.91,64,75,8.75,SJ,1715414219
100,ardakan,32.31,54.0175,26.28,17,6,1.38,IR,1715414219
101,nizhnesortymskiy,62.4397,71.7603,4.23,80,23,6.01,RU,1715414219
102,khenchela,35.4358,7.1433,17.77,36,0,2.94,DZ,1715414220
103,villanueva,15.3167,-88.0,28.91,75,100,0.7,HN,1715414220
104,hami,42.8,93.45,32.28,7,4,1.29,CN,1715414221
105,angaur state,6.906,134.13,29.3,80,23,7.05,PW,1715414221
106,big bear city,34.2611,-116.845,8.63,54,0,1.34,US,1715414221
107,bowen,-20.0167,148.2333,24.0,70,0,6.68,AU,1715414222
108,al bawiti,28.3492,28.8659,26.29,28,0,4.55,EG,1715414222
109,mount pearl,47.5166,-52.7813,0.61,95,100,4.63,CA,1715414222
110,sao pedro do sul,-29.6206,-54.1789,15.5,99,100,0.43,BR,1715413950
111,tazovsky,67.4667,78.7,-0.08,99,100,1.37,RU,1715414223
112,prince george,53.9166,-122.753,14.69,54,100,4.12,CA,1715414224
113,armacao de buzios,-22.7469,-41.8817,22.03,91,100,3.6,BR,1715414224
114,alice town,25.7167,-79.3,26.83,78,0,5.51,BS,1715414225
115,kavieng,-2.5744,150.7967,28.92,75,100,3.59,PG,1715414225
116,puerto baquerizo moreno,-0.9,-89.6,22.72,92,88,2.86,EC,1715414225
117,upington,-28.4478,21.2561,13.21,67,0,3.09,ZA,1715414226
118,taltal,-25.4,-70.4833,14.81,84,100,0.5,CL,1715414226
119,khorixas,-20.3667,14.9667,28.16,15,1,4.92,NA,1715414226
120,swan hill,-35.3378,143.5544,14.52,83,100,3.09,AU,1715414227
121,samsun,41.25,36.3333,16.91,76,67,2.27,TR,1715414227
122,hafnarfjordur,64.0671,-21.9377,8.93,81,75,4.63,IS,1715414227
123,taguatinga,-12.3857,-46.5711,18.56,53,34,2.0,BR,1715414228
124,jwaneng,-24.6004,24.7303,24.51,14,1,2.39,BW,1715414228
125,kirkkonummi,60.1238,24.4385,11.17,56,0,5.57,FI,1715414163
126,villa gesell,-37.2639,-56.973,7.81,76,100,5.35,AR,1715414229
127,muli,2.9167,73.5667,29.47,72,98,3.91,MV,1715414229
128,torghay,49.6339,63.4981,17.63,27,8,4.12,KZ,1715414230
129,vilyuchinsk,52.9306,158.4028,4.15,80,100,2.04,RU,1715414230
130,paka,4.6374,103.4368,31.96,70,40,3.6,MY,1715414109
131,batangafo,7.3008,18.2833,35.36,34,68,2.69,CF,1715414231
132,datong,40.0936,113.2914,18.58,12,51,8.88,CN,1715414191
133,vorgashor,67.5833,63.95,-1.78,86,86,2.81,RU,1715414231
134,rongelap,11.1635,166.8941,27.32,83,100,6.58,MH,1715414232
135,huambo,-12.7761,15.7392,18.89,48,0,1.03,AO,1715414232
136,port alberni,49.2413,-124.8028,16.91,74,32,0.89,CA,1715414232
137,mahina,-17.5065,-149.489,25.87,83,40,1.54,PF,1715414233
138,tolanaro,-25.0319,46.9987,27.04,65,20,4.12,MG,1715414233
139,raduzhnyy,62.0961,77.475,2.4,97,100,4.08,RU,1715414234
140,shenjiamen,29.9576,122.298,19.39,96,100,6.74,CN,1715414234
141,nova olinda do norte,-3.8881,-59.0942,23.6,99,44,1.03,BR,1715414234
142,georgetown,5.4112,100.3354,31.96,74,20,4.12,MY,1715414235
143,mount isa,-20.7333,139.5,26.87,47,100,4.12,AU,1715414235
144,rio grande,-32.035,-52.0986,17.33,91,100,3.19,BR,1715414236
145,la'ie,21.6477,-157.9253,22.78,88,8,0.45,US,1715414236
146,la maddalena,41.2142,9.4083,22.03,66,0,2.83,IT,1715414236
147,prince rupert,54.3161,-130.3201,8.83,90,100,2.06,CA,1715414237
148,edinburgh of the seven seas,-37.0676,-12.3116,17.13,90,100,13.06,SH,1715414237
149,fale old settlement,-9.3852,-171.2468,29.2,75,16,3.96,TK,1715414238
150,qamdo,31.1667,97.2333,5.0,44,100,1.28,CN,1715414238
151,chipinge,-20.1883,32.6236,26.04,27,0,1.56,ZW,1715414238
152,tamanrasset,22.785,5.5228,27.95,12,0,7.72,DZ,1715414239
153,guarapari,-20.6667,-40.4975,22.35,91,32,1.73,BR,1715414239
154,bodo,67.28,14.405,8.02,63,100,7.2,NO,1715414240
155,bonthe,7.5264,-12.505,28.65,78,23,0.7,SL,1715414240
156,bossangoa,6.4926,17.4552,35.36,36,97,2.66,CF,1715414240
157,badger,64.8,-147.5333,6.51,53,100,1.54,US,1715414241
158,thomazeau,18.6519,-72.0947,24.85,90,20,1.51,HT,1715414241
159,songkhla,6.8333,100.6667,33.03,91,100,1.57,TH,1715413949
160,fort st. john,56.2499,-120.8529,10.94,37,100,6.17,CA,1715414242
161,coahuayana de hidalgo,18.7,-103.6583,21.58,89,2,1.05,MX,1715414242
162,greenville,35.6127,-77.3663,13.41,96,40,2.06,US,1715414243
163,avarua,-21.2078,-159.775,25.03,83,75,1.54,CK,1715414243
164,praia da vitoria,38.7333,-27.0667,18.14,82,40,2.48,PT,1715414244
165,pisco,-13.7,-76.2167,19.03,82,0,6.17,PE,1715414244
166,vadso,70.0744,29.7487,3.49,70,20,6.17,NO,1715414244
167,helena valley west central,46.6629,-112.0604,9.93,72,7,1.79,US,1715414245
168,st. john's,47.5649,-52.7093,1.07,96,100,5.36,CA,1715414245
169,saipan,15.1355,145.701,28.15,78,18,8.29,MP,1715414245
170,watsa,3.0372,29.5355,30.17,43,44,1.7,CD,1715414246
171,n'dalatando,-9.2978,14.9116,24.43,49,62,2.56,AO,1715414246
172,pimentel,-6.8367,-79.9342,18.16,88,0,4.12,PE,1715414247
173,utrik,11.2278,169.8474,27.33,81,100,6.56,MH,1715414247
174,hithadhoo,-0.6,73.0833,29.41,76,87,4.35,MV,1715414248
175,vorkuta,67.5,64.0,-1.61,86,79,3.13,RU,1715414249
176,laguna,38.421,-121.4238,21.36,64,0,3.09,US,1715414249
177,weno,7.4515,151.8468,28.37,72,100,7.27,FM,1715414250
178,labuan,5.2767,115.2417,32.2,74,20,2.57,MY,1715414250
179,ingeniero guillermo n. juarez,-23.9,-61.85,15.95,93,99,4.15,AR,1715414251
180,nova sintra,14.8667,-24.7167,20.98,77,63,9.3,CV,1715414251
181,minas de marcona,-15.2119,-75.1103,13.5,92,90,6.56,PE,1715414251
182,fort wellington,6.4,-57.6,25.75,86,89,2.76,GY,1715414252
183,tabou,4.423,-7.3528,27.73,85,100,1.61,CI,1715414252
184,iskateley,67.6803,53.1512,-3.32,88,98,3.13,RU,1715414252
185,freetown,8.484,-13.2299,25.84,83,75,3.09,SL,1715414253
186,luderitz,-26.6481,15.1594,18.97,46,0,6.09,NA,1715414066
187,atafu village,-8.5421,-172.5159,29.65,71,90,4.14,TK,1715414253
188,bucak,37.4592,30.595,15.29,82,100,0.92,TR,1715414254
189,isafjordur,66.0755,-23.124,7.71,90,100,1.47,IS,1715414254
190,opuwo,-18.0607,13.84,26.13,19,0,4.05,NA,1715414255
191,ancud,-41.8697,-73.8203,6.75,86,99,3.15,CL,1715414255
192,pul-e khumri,35.9446,68.7151,17.57,72,100,3.35,AF,1715414255
193,langepas,61.2544,75.2124,7.53,58,90,5.14,RU,1715414079
194,joal-fadiout,14.1667,-16.8333,23.18,74,7,3.99,SN,1715414256
195,rostovka,55.3842,71.8891,12.8,36,79,7.97,RU,1715414256
196,al marj,32.488,20.8317,19.25,59,6,7.27,LY,1715414257
197,polyarnyy,69.1989,33.4478,0.46,90,100,6.02,RU,1715414257
198,klyuchi,52.2667,79.1667,17.62,32,100,6.19,RU,1715414257
199,afaahiti,-17.75,-149.2833,24.93,85,20,5.67,PF,1715414258
200,rapar,23.5667,70.6333,37.84,28,0,4.94,IN,1715414258
201,kargasok,59.0556,80.8572,12.2,37,92,3.13,RU,1715414259
202,reftinskiy,57.0901,61.6769,10.6,51,100,7.69,RU,1715414234
203,vegreville,53.5001,-112.0518,15.39,37,15,4.12,CA,1715414259
204,belyy yar,53.6039,91.3903,23.94,41,0,1.0,RU,1715414260
205,hasaki,35.7333,140.8333,24.22,64,11,9.52,JP,1715414260
206,yatou,37.15,122.3833,17.27,40,100,5.36,CN,1715414260
207,mar del plata,-38.0023,-57.5575,12.15,84,0,5.81,AR,1715414208
208,taoudenni,22.6783,-3.9836,34.35,8,100,7.48,ML,1715414261
209,parun,35.4207,70.9221,12.51,59,33,3.65,AF,1715414261
210,peterhead,57.5058,-1.7981,19.69,79,60,3.53,GB,1715414262
211,plastun,44.7561,136.2939,6.88,94,100,3.03,RU,1715414262
212,alibag,18.6411,72.8792,33.04,61,6,6.16,IN,1715414263
213,novofedorivka,46.1713,32.3178,17.97,42,36,2.91,UA,1715414263
214,tura,25.5198,90.2201,28.38,58,75,1.66,IN,1715414263
215,quelimane,-17.8786,36.8883,26.97,83,20,1.71,MZ,1715414264
216,baruun-urt,46.6806,113.2792,12.32,33,84,7.8,MN,1715414264
217,sandnessjoen,66.0217,12.6316,7.29,61,95,5.54,NO,1715414264
218,igarka,67.4667,86.5833,-0.55,99,100,5.81,RU,1715414265
219,roxas,11.5853,122.7511,30.08,58,10,3.82,PH,1715414265
220,loushanguan,28.1375,106.82,18.64,91,100,2.89,CN,1715414266
221,usogorsk,63.4106,48.6872,0.86,83,100,3.87,RU,1715414266
222,jamestown,42.097,-79.2353,4.8,99,0,2.57,US,1715414266
223,mhamid,29.82,-5.72,29.38,11,100,4.22,MA,1715414267
224,stanley,54.868,-1.6985,16.51,81,0,0.51,GB,1715414267
225,chanasma,23.7167,72.1167,40.17,24,0,3.87,IN,1715414267
226,cabedelo,-6.9811,-34.8339,23.37,77,100,2.81,BR,1715414268
227,narrabri,-30.3167,149.7833,17.51,88,100,0.45,AU,1715414268
228,kintampo,8.0563,-1.7306,28.61,67,24,3.34,GH,1715414018
229,nadi,-17.8,177.4167,24.0,69,20,4.12,FJ,1715414270
230,shitanjing,39.2342,106.3439,22.81,12,0,7.16,CN,1715414270
231,berdigestyakh,62.0989,126.6992,4.85,41,100,2.01,RU,1715414271
232,ishim,56.1128,69.4902,11.71,30,11,7.58,RU,1715414271
233,conception bay south,47.4999,-52.9981,0.94,95,100,4.63,CA,1715414271
234,dalton,34.7698,-84.9702,12.27,97,0,1.54,US,1715414272
235,xingcheng,40.6167,120.7167,21.71,29,17,8.18,CN,1715414272
236,ostersund,63.1792,14.6357,10.9,49,75,2.06,SE,1715414273
237,brookings,44.3114,-96.7984,11.77,71,76,2.81,US,1715414273
238,salinas,36.6777,-121.6555,14.84,87,100,0.0,US,1715414273
239,arkhangel'sk,64.5401,40.5433,2.06,69,75,4.0,RU,1715414158
240,garachico,28.7781,-17.7646,18.06,73,75,6.17,ES,1715414274
241,sotouboua,8.5667,0.9833,29.16,66,16,1.55,TG,1715414274
242,utete,-7.986,38.758,28.6,69,52,0.47,TZ,1715414275
243,idri,27.5,13.2667,22.82,37,0,4.42,LY,1715414275
244,gadzhiyevo,69.2551,33.3362,0.36,90,100,5.92,RU,1715414275
245,la libertad,-2.2333,-80.9,23.62,82,100,1.28,EC,1715414276
246,selfoss,63.9331,-20.9971,8.36,96,100,3.09,IS,1715414276
247,shimoda,34.6667,138.95,22.84,67,8,4.26,JP,1715414223
248,monster,52.0258,4.175,17.21,81,100,3.6,NL,1715414277
249,camapua,-19.5314,-54.0439,19.47,58,87,0.9,BR,1715414277
250,nizhneudinsk,54.9076,99.0276,25.12,32,100,3.64,RU,1715414278
251,sao paulo de olivenca,-3.3783,-68.8725,22.08,100,76,0.88,BR,1715414279
252,hadibu,12.65,54.0333,30.74,63,100,2.0,YE,1715414279
253,kitimat,54.0524,-128.6534,13.21,73,100,0.77,CA,1715414280
254,nemuro,43.3236,145.575,6.38,87,100,4.37,JP,1715414280
255,port mathurin,-19.6833,63.4167,25.63,79,96,10.92,MU,1715414281
256,bela vista,-22.1089,-56.5211,20.28,57,6,2.31,BR,1715414281
257,cole harbour,44.6724,-63.4751,5.71,92,88,0.0,CA,1715414281
258,bam,29.106,58.357,28.35,14,1,5.19,IR,1715414133
259,kirkwall,58.9848,-2.9587,15.03,77,0,4.63,GB,1715414283
260,medicine hat,50.0501,-110.6683,14.06,54,0,4.12,CA,1715414284
261,elko,41.0002,-115.5012,9.8,51,3,4.47,US,1715414284
262,hermanus,-34.4187,19.2345,14.33,60,45,2.1,ZA,1715414285
263,manokwari,-0.8667,134.0833,27.22,85,100,4.09,ID,1715414285
264,tabas,33.5959,56.9244,29.12,17,0,1.78,IR,1715414285
265,strelka,58.0728,93.0344,20.33,54,99,5.46,RU,1715414286
266,shilka,51.85,116.0333,12.6,41,89,5.6,RU,1715414286
267,ongjin,37.9347,125.3619,13.2,87,100,5.1,KP,1715414286
268,egilsstadir,65.2653,-14.3948,9.95,81,0,5.66,IS,1715414287
269,reggane,26.7158,0.1714,28.94,12,100,10.59,DZ,1715414287
270,qala i naw,34.9874,63.1289,17.9,51,53,2.75,AF,1715414288
271,waingapu,-9.6567,120.2641,28.62,73,96,7.06,ID,1715414288
272,panaba,21.2833,-88.2667,24.02,97,6,3.03,MX,1715414288
273,nalagarh,31.05,76.7167,33.38,21,49,2.03,IN,1715413997
274,walvis bay,-22.9575,14.5053,15.61,82,0,2.57,NA,1715414289
275,ylitornio,66.3089,23.6773,2.46,90,14,2.33,FI,1715414289
276,staryy krym,45.0333,35.1,16.49,45,100,6.87,UA,1715414290
277,camacupa,-12.0167,17.4833,20.39,44,2,1.91,AO,1715414291
278,vila velha,-20.3297,-40.2925,23.97,100,0,0.0,BR,1715414186
279,cutral-co,-38.9469,-69.2089,5.51,10,99,0.45,AR,1715414292
280,cervantes,-39.05,-67.3833,5.61,65,93,4.18,AR,1715414292
281,aasiaat,68.7098,-52.8699,-10.12,93,99,2.68,GL,1715414092
282,hamilton,39.1834,-84.5333,13.35,82,99,0.89,US,1715414293
283,coquimbo,-29.9533,-71.3436,10.85,76,0,3.09,CL,1715414249
284,bardsir,29.9227,56.5743,21.32,19,4,2.24,IR,1715414294
285,zaragoza,41.6561,-0.8773,21.67,43,0,2.06,ES,1715414294
286,priargunsk,50.3691,119.1012,18.69,17,99,7.0,RU,1715414294
287,okhotsk,59.3833,143.3,0.08,97,100,2.46,RU,1715414295
288,abra pampa,-22.7205,-65.697,8.02,25,0,2.49,AR,1715414295
289,auch,43.65,0.5833,20.25,79,8,4.02,FR,1715414050
290,carnarvon,-24.8667,113.6333,29.3,39,69,3.51,AU,1715414296
291,astrakhan,46.3497,48.0408,19.93,37,0,7.0,RU,1715414196
292,aweil,8.7682,27.4002,37.25,28,96,3.33,SS,1715414298
293,kyshtovka,56.555,76.6271,13.46,28,87,5.59,RU,1715414298
294,hargeysa,9.56,44.065,29.08,40,14,3.12,SO,1715414299
295,tokar,18.4254,37.729,35.79,51,73,2.43,SD,1715414299
296,yuzhno-kurilsk,44.0306,145.8556,7.99,76,100,3.06,RU,1715414203
297,alofi,-19.0595,-169.9187,23.94,73,75,4.63,NU,1715414301
298,kudligi,14.9,76.3833,36.91,28,46,3.09,IN,1715414301
299,pestovo,58.5938,35.8024,3.57,68,100,4.44,RU,1715414301
300,kayyerkan,69.3786,87.7439,-0.93,83,100,2.0,RU,1715414302
301,al kharijah,25.4514,30.5464,32.59,15,0,8.42,EG,1715414302
302,zyryanskoye,56.8306,86.6258,17.53,36,72,4.86,RU,1715414303
303,dothan,31.2232,-85.3905,19.0,79,95,0.89,US,1715414303
304,linares,-35.85,-71.6,6.12,88,43,1.17,CL,1715414303
305,puerto escondido,15.85,-97.0667,25.9,66,100,2.09,MX,1715414304
306,ta`u,-14.2336,-169.5144,27.09,86,59,8.97,AS,1715414304
307,kill devil hills,36.0307,-75.676,13.32,83,100,8.23,US,1715414304
308,camabatela,-8.1881,15.375,25.72,43,28,2.94,AO,1715414305
309,haiku-pauwela,20.9219,-156.3051,21.69,86,46,1.58,US,1715414305
310,lompoc,34.6391,-120.4579,12.66,93,100,1.54,US,1715414306
311,gargalianoi,37.0667,21.6333,19.64,64,78,1.84,GR,1715414306
312,katsuura,35.1333,140.3,20.09,67,3,7.95,JP,1715414290
313,malabrigo,-29.3464,-59.9696,13.9,90,100,2.4,AR,1715414307
314,arris,35.2588,6.3471,16.5,43,0,4.1,DZ,1715414307
315,san andres,12.5847,-81.7006,29.01,84,20,4.12,CO,1715414307
316,khandyga,62.6667,135.6,4.98,47,100,1.29,RU,1715414308
317,durban,-29.8579,31.0292,23.51,72,100,7.99,ZA,1715414308
318,kupang,-10.1667,123.5833,33.32,66,20,10.29,ID,1715414213
319,howard springs,-12.497,131.047,33.32,63,1,2.05,AU,1715414309
320,dolores,-36.3132,-57.6792,7.65,73,100,2.49,AR,1715414177
321,port alfred,-33.5906,26.891,18.43,65,47,3.58,ZA,1715414310
322,morro do chapeu,-11.55,-41.1561,17.06,99,65,1.75,BR,1715414310
323,cox's bazar,21.4532,91.9798,31.85,56,0,5.53,BD,1715414310
324,susuman,62.7833,148.1667,3.32,73,100,1.34,RU,1715414311
325,bel ombre,-4.6167,55.4167,31.91,66,20,10.29,SC,1715414311
326,mandvi,22.8333,69.3667,31.95,59,0,5.28,IN,1715414312
327,sungai penuh,-2.0833,101.3833,24.3,86,100,0.74,ID,1715414312
328,nuuk,64.1835,-51.7216,-2.03,81,21,2.63,GL,1715414088
329,villa bruzual,9.3328,-69.1208,24.1,94,100,0.75,VE,1715414312
330,kuraymah,18.55,31.85,39.86,6,60,4.24,SD,1715414313
331,yakeshi,49.2833,120.7333,12.57,26,100,9.22,CN,1715414313
332,colonia,50.9333,6.95,20.7,65,0,1.03,DE,1715414314
333,padampur,29.6833,73.6167,40.95,15,27,3.56,IN,1715414314
334,fortaleza,-3.7227,-38.5247,26.07,89,75,2.06,BR,1715414314
335,mil'kovo,55.6078,37.7956,9.08,55,83,5.73,RU,1715414315
336,acarau,-2.8856,-40.12,24.69,89,96,3.72,BR,1715414315
337,levuka,50.1834,-105.4011,11.84,51,76,6.13,CA,1715414316
338,belo sur tsiribihina,-19.7,44.55,31.57,37,80,1.57,MG,1715414316
339,karratha,-20.7377,116.8463,29.8,29,90,4.53,AU,1715414227
340,harnosand,62.6323,17.9379,9.0,50,28,0.55,SE,1715414317
341,new norfolk,-42.7826,147.0587,12.06,88,65,0.73,AU,1715414318
342,cristalina,-16.7686,-47.6136,13.87,78,57,0.6,BR,1715414318
343,essaouira,31.5125,-9.77,19.72,82,100,4.12,MA,1715414318
344,fort bragg,35.139,-79.006,14.91,71,0,2.57,US,1715414319
345,trinidad,-14.8333,-64.9,23.65,87,21,1.94,BO,1715414319
346,port saint john's,-31.6229,29.5448,20.27,61,12,5.38,ZA,1715414319
347,kirakira,-10.4544,161.9205,26.06,84,68,4.69,SB,1715414320
348,turpan,42.9333,89.1667,38.59,5,0,1.95,CN,1715414320
349,woods creek,47.8787,-121.8985,16.75,84,44,1.44,US,1715414321
350,salalah,17.0151,54.0924,36.01,31,55,1.76,OM,1715414282
351,tres lagoas,-20.7511,-51.6783,18.78,51,25,2.54,BR,1715414322
352,qarchi gak,37.04,66.7889,23.63,35,45,6.49,AF,1715414322
353,sur,22.5667,59.5289,32.95,46,0,2.88,OM,1715414323
354,okha,53.5739,142.9478,3.47,70,7,6.26,RU,1715414313
355,sillod,20.3,75.65,36.53,24,12,2.55,IN,1715414324
356,tabuk,17.4189,121.4443,33.55,54,100,2.91,PH,1715414036
357,youssoufia,32.2463,-8.5294,18.52,70,100,3.53,MA,1715414325
358,kharp,66.8014,65.8081,-2.94,97,41,1.73,RU,1715414325
359,inongo,-1.95,18.2667,23.75,83,100,1.86,CD,1715414326
360,nuku'alofa,-21.1333,-175.2,23.19,60,40,3.09,TO,1715414326
361,bridgewater,44.3835,-64.5155,5.93,93,64,1.03,CA,1715414326
362,sisimiut,66.9395,-53.6735,-4.45,83,26,2.68,GL,1715414091
363,kaeng khro,16.1086,102.2581,34.7,41,97,1.54,TH,1715414060
364,constantia,44.1833,28.65,21.5,51,16,6.28,RO,1715414327
365,chuguyevka,44.1653,133.8633,17.29,60,78,3.8,RU,1715414328
366,usinsk,65.9939,57.5281,2.16,80,20,3.16,RU,1715414328
367,coxim,-18.5067,-54.76,19.53,62,47,1.71,BR,1715414328
368,ust-nera,64.5667,143.2,3.0,77,100,1.9,RU,1715414329
369,lata,40.1629,-8.3327,16.15,73,20,0.9,PT,1715414329
370,pulgaon,20.7333,78.3333,42.39,16,9,4.09,IN,1715414295
371,sumbawanga,-7.9667,31.6167,21.89,68,40,3.09,TZ,1715414330
372,dudinka,69.4058,86.1778,-4.62,82,100,4.47,RU,1715414176
373,mahebourg,-20.4081,57.7,27.36,69,75,6.17,MU,1715414330
374,newman,37.3138,-121.0208,19.05,69,0,1.79,US,1715414331
375,cannonvale,-20.2833,148.7,23.1,75,0,6.11,AU,1715414331
376,maxixe,-23.8597,35.3472,26.9,74,20,3.13,MZ,1715414332
377,island harbour,50.724,-1.2758,16.84,82,100,1.79,GB,1715414332
378,palmer,42.1584,-72.3287,8.43,73,59,1.39,US,1715414332
379,volosovo,59.4333,29.4833,4.01,61,100,5.98,RU,1715414333
380,kaltungo,9.8142,11.3089,31.08,49,70,2.97,NG,1715414333
381,paravur tekkumbhagam,8.7833,76.7,34.01,63,100,3.71,IN,1715414333
382,federacion,-31.0062,-57.8996,13.66,90,100,2.68,AR,1715414334
383,thinadhoo,0.5333,72.9333,29.56,76,74,5.34,MV,1715414221
384,whitecourt,54.1502,-115.6855,14.3,55,82,3.38,CA,1715414335
385,ploneour-lanvern,47.9,-4.2833,18.18,68,0,3.09,FR,1715414335
386,guerrero negro,27.9769,-114.0611,14.72,83,59,5.97,MX,1715414335
387,vila franca do campo,37.7167,-25.4333,18.27,99,82,2.12,PT,1715414336
388,zag,46.9441,99.165,20.23,7,48,1.74,MN,1715414336
389,urangan,-25.3,152.9,22.33,76,6,2.68,AU,1715414336
390,trujillo,-8.116,-79.03,16.98,94,20,2.57,PE,1715414134
391,ceylanpinar,36.8472,40.05,27.45,27,100,7.66,TR,1715414338
392,namtsy,62.7161,129.6658,5.15,35,100,2.91,RU,1715414339
393,arta,39.1606,20.9853,21.8,55,100,0.64,GR,1715414189
394,kokpekty,48.75,82.4,20.06,61,100,8.7,KZ,1715414339
395,kolonia town,6.964,158.206,26.27,88,100,7.2,FM,1715414340
396,kenora,49.8167,-94.4337,9.54,66,20,1.03,CA,1715414340
397,omoku,5.3435,6.6532,28.09,78,58,1.9,NG,1715414340
398,boguchany,58.3814,97.4531,22.7,41,100,4.47,RU,1715414341
399,ceara mirim,-5.6344,-35.4256,24.13,94,20,1.54,BR,1715414341
400,puerto deseado,-47.7503,-65.8938,3.14,78,94,4.7,AR,1715414342
401,pahrump,36.2083,-115.9839,18.02,37,26,2.68,US,1715414343
402,kichmengskiy gorodok,59.9816,45.7854,-1.14,97,100,4.02,RU,1715414343
403,bukittinggi,-0.3091,100.3706,24.52,86,96,0.64,ID,1715414345
404,flying fish cove,-10.4217,105.6791,27.82,83,100,6.17,CX,1715414345
405,san luis de la loma,17.2706,-100.8939,24.32,73,100,0.87,MX,1715414345
406,wagar,16.1525,36.2032,38.67,23,50,2.97,SD,1715414346
407,dronero,44.4657,7.3513,19.43,59,56,1.27,IT,1715414346
408,mtambile,-5.3833,39.7,27.19,77,33,6.27,TZ,1715414347
409,muisne,0.6,-80.0333,25.75,88,100,4.78,EC,1715414347
410,san cristobal,7.7669,-72.225,19.64,98,96,1.61,VE,1715414224
411,kongsvinger,60.1905,11.9977,13.59,48,31,1.19,NO,1715414348
412,ola,59.5833,151.2833,3.41,80,99,2.49,RU,1715414348
413,nouzonville,49.8137,4.7474,16.75,62,48,3.59,FR,1715414348
414,winslow,35.0242,-110.6974,12.52,23,0,4.9,US,1715414349
415,bechem,7.0903,-2.025,25.99,86,98,1.78,GH,1715414349
416,homer,59.6425,-151.5483,4.94,76,100,7.2,US,1715414350
417,asau,46.4333,26.4,16.51,66,93,2.9,RO,1715414350
418,nyagan,62.1406,65.3936,4.72,60,100,5.23,RU,1715414193
419,isangel,-19.55,169.2667,23.24,72,58,6.1,VU,1715414351
420,quang ngai,15.1167,108.8,33.33,54,10,5.64,VN,1715414225
421,mgandu,-5.95,34.1333,22.72,60,36,3.86,TZ,1715414351
422,hershey,40.2859,-76.6503,9.3,95,100,2.06,US,1715414352
423,as sulayyil,20.4607,45.5779,33.14,13,6,6.64,SA,1715414352
424,queenstown,-31.8976,26.8753,14.83,54,11,1.19,ZA,1715413804
425,porbandar,21.6422,69.6093,31.54,61,0,5.45,IN,1715414138
426,pilar,-9.5972,-35.9567,24.96,93,53,1.44,BR,1715414354
427,lazaro cardenas,17.9583,-102.2,22.32,80,94,1.98,MX,1715414209
428,rawson,-43.3002,-65.1023,8.42,64,79,4.81,AR,1715414326
429,karlskrona,56.1616,15.5866,7.25,84,100,2.82,SE,1715414355
430,ust-tsilma,65.441,52.1498,-1.33,89,35,2.24,RU,1715414355
431,karatuzskoye,53.6072,92.8667,20.21,50,100,1.34,RU,1715414356
432,ayorou,14.7308,0.9174,36.43,29,9,8.4,NE,1715414356
433,kabalo,-6.05,26.9167,27.89,57,97,2.04,CD,1715414357
434,roma,43.2128,-75.4557,10.32,99,100,0.89,US,1715414146
435,suzhou,31.3114,120.6181,22.27,91,99,1.8,CN,1715414357
436,geraldton,-28.7667,114.6,28.23,44,100,5.14,AU,1715414181
437,port augusta,-32.5,137.7667,15.73,75,96,4.48,AU,1715414358
438,holualoa,19.6228,-155.9522,20.31,96,77,0.84,US,1715414358
439,mahavelona,-17.6848,49.5087,25.99,65,22,3.97,MG,1715414359
440,mahenge,-8.6833,36.7167,22.86,64,5,0.73,TZ,1715414359
441,machico,32.7,-16.7667,20.56,78,40,6.69,PT,1715414359
442,trenggalek,-8.05,111.7167,27.46,85,79,2.33,ID,1715414360
443,kismayo,-0.3582,42.5454,29.58,70,90,6.87,SO,1715414360
444,xining,36.6167,101.7667,21.0,41,28,0.7,CN,1715414361
445,labrador city,52.9463,-66.9114,-1.57,71,0,1.03,CA,1715414361
446,paracuru,-3.41,-39.0306,25.62,92,93,3.77,BR,1715414361
447,empangeni,-28.762,31.8933,23.43,70,99,6.71,ZA,1715414362
448,acapulco de juarez,16.8634,-99.8901,24.56,74,52,1.17,MX,1715414362
449,plettenberg bay,-34.0527,23.3716,16.68,53,2,3.59,ZA,1715414362
450,sabang,5.8933,95.3214,29.19,72,57,1.41,ID,1715414363
451,jakobstad,63.6749,22.7026,6.13,75,8,4.77,FI,1715414130
452,nakamura,32.9833,132.9333,21.11,68,100,2.71,JP,1715414363
453,yaren,-0.5472,166.916,29.12,62,92,0.43,NR,1715414364
454,rock springs,41.5875,-109.2029,6.69,61,86,3.8,US,1715414364
455,kerikeri,-35.2268,173.9474,7.17,85,0,2.05,NZ,1715414365
456,igbo-ora,7.4333,3.2833,28.65,77,47,2.46,NG,1715414365
457,santa elena de uairen,4.6167,-61.1333,19.94,94,97,1.26,VE,1715414366
458,uturoa,-16.7333,-151.4333,27.69,78,12,3.55,PF,1715414366
459,barra do garcas,-15.89,-52.2567,17.99,63,100,1.09,BR,1715414366
460,sulechow,52.0836,15.6251,15.4,82,0,2.57,PL,1715414367
461,port macquarie,-31.4333,152.9167,16.05,87,100,2.06,AU,1715414337
462,kemijarvi,66.7131,27.4306,1.82,97,45,4.94,FI,1715414367
463,mumford,5.2618,-0.759,28.9,77,80,2.75,GH,1715414368
464,al ghayzah,16.2079,52.176,35.23,37,28,3.05,YE,1715414368
465,santa rosalia,27.3167,-112.2833,21.37,28,100,3.08,MX,1715414368
466,inarajan village,13.2736,144.7484,30.08,85,41,6.64,GU,1715414369
467,mont-laurier,46.5501,-75.4993,5.79,84,88,0.99,CA,1715414369
468,chulakkurgan,43.765,69.1814,15.72,75,95,4.38,KZ,1715414369
469,tambura,5.6,27.4667,33.17,40,99,2.99,SS,1715414370
470,maricopa,33.0581,-112.0476,25.54,22,0,3.09,US,1715414370
471,binkolo,8.9533,-11.9779,25.62,91,100,0.57,SL,1715414371
472,kidal,18.4411,1.4078,35.19,7,0,7.93,ML,1715414371
473,namdrik,5.5994,168.1028,28.79,76,84,5.0,MH,1715414371
474,leamington,42.0549,-82.6062,15.04,47,59,8.94,CA,1715414372
475,orahovica donja,44.6531,18.3703,16.27,59,77,1.09,BA,1715414372
476,happy valley-goose bay,53.3168,-60.3315,-1.83,93,0,2.06,CA,1715414372
477,al badari,26.9926,31.4155,30.08,15,0,7.58,EG,1715414374
478,nantucket,41.2835,-70.0995,7.22,91,100,7.96,US,1715414374
479,mellrichstadt,50.4333,10.3167,18.86,61,100,1.02,DE,1715414374
480,ubatuba,-23.4339,-45.0711,23.54,75,100,1.33,BR,1715414375
481,whangarei,-35.7317,174.3239,8.23,85,0,1.24,NZ,1715414375
482,villacanas,39.6237,-3.3381,17.69,49,12,4.63,ES,1715414376
483,ponca city,36.707,-97.0856,14.97,82,15,2.45,US,1715414376
484,magadan,59.5667,150.8,3.07,80,100,2.61,RU,1715414101
485,mili,6.0815,171.735,26.1,91,100,7.57,MH,1715414377
486,esqueda,30.7167,-109.5833,14.52,19,14,1.62,MX,1715414377
487,messaad,34.1543,3.5031,20.66,24,38,3.92,DZ,1715414377
488,novyy urengoy,66.0833,76.6333,0.57,97,9,4.33,RU,1715414169
489,ageyevo,54.1588,36.4693,7.16,94,100,4.69,RU,1715414378
490,west bay,19.3667,-81.4167,26.71,88,3,3.52,KY,1715414378
491,vuktyl,63.8567,57.3094,1.17,74,99,4.02,RU,1715414379
492,miguel bocanegra,19.85,-99.1,23.61,47,6,1.64,MX,1715414379
493,al jawf,29.5,38.75,33.76,8,0,5.64,SA,1715414379
494,tionk essil,12.7856,-16.5217,24.98,68,16,2.89,SN,1715414380
495,mata-utu,-13.2816,-176.1745,28.39,71,99,9.03,WF,1715414253
496,cloquet,46.7216,-92.4594,8.77,94,0,2.06,US,1715414381
497,barcelos,41.5388,-8.6151,19.36,83,0,1.16,PT,1715414164
498,najran,17.4924,44.1277,29.36,30,19,6.58,SA,1715414382
499,salym,60.0625,71.4789,10.84,29,100,6.17,RU,1715414382
500,mangai,-4.05,19.5333,26.97,74,97,1.31,CD,1715414382
501,portel,-1.9356,-50.8211,24.0,97,64,0.82,BR,1715414383
502,tsiombe,-25.3,45.4833,29.91,34,0,3.14,MG,1715414366
503,vredendal,-31.6683,18.5012,16.58,62,0,2.32,ZA,1715414383
504,kayes,14.0,-11.0,34.4,25,45,5.17,ML,1715414384
505,amahai,-3.3333,128.9167,27.76,85,88,2.18,ID,1715414384
506,aktau,43.65,51.2,19.32,70,51,6.61,KZ,1715414128
507,praya,14.9215,-23.5087,23.3,68,40,5.66,CV,1715414113
508,oranjemund,-28.55,16.4333,16.53,75,0,5.95,NA,1715414385
509,portland,45.5234,-122.6762,19.5,68,8,0.45,US,1715414386
510,bandar,2.05,99.75,28.91,88,100,1.09,ID,1715414386
511,ouled mimoun,34.9047,-1.0339,15.01,26,80,1.21,DZ,1715414386
512,serafimovskiy,54.4241,53.7964,5.08,93,100,8.09,RU,1715414387
513,mersing,2.4312,103.8405,32.95,75,40,3.6,MY,1715414387
514,rampur,28.8167,79.0333,28.28,20,4,0.65,IN,1715414234
515,eirunepe,-6.6603,-69.8736,23.42,96,86,1.07,BR,1715414388
516,anna regina,7.2644,-58.5077,26.12,86,100,2.42,GY,1715414388
517,fauske,67.2588,15.3918,8.02,83,97,2.27,NO,1715414389
518,iglino,54.8324,56.4126,12.05,53,100,10.05,RU,1715414389
519,coronel suarez,-37.4547,-61.9334,5.47,93,92,3.54,AR,1715414389
520,langfang,39.5097,116.6947,26.28,12,0,8.17,CN,1715414390
521,novaya igirma,57.1334,103.9112,21.42,24,90,4.0,RU,1715414390
522,okakarara,-20.5833,17.4333,23.86,15,0,3.04,NA,1715414390
523,el charco,2.4769,-78.1105,25.09,96,100,1.86,CO,1715414391
524,bandarbeyla,9.4942,50.8122,30.87,67,91,3.91,SO,1715414391
525,kambove,-10.8764,26.5969,23.72,53,3,2.37,CD,1715414392
526,sinabang,2.4803,96.3801,28.73,81,92,4.05,ID,1715414392
527,umm kaddadah,13.6017,26.6876,35.3,4,100,1.45,SD,1715414392
528,sekong,-6.3996,106.0252,28.93,75,70,1.35,ID,1715414393
529,belmonte,-15.8631,-38.8828,25.12,86,97,3.31,BR,1715414393
530,okulovka,58.4008,33.2908,2.93,68,99,5.3,RU,1715414393
531,zabid,14.1951,43.3152,38.19,35,14,3.48,YE,1715414394
532,lesosibirsk,58.2358,92.4828,17.09,65,100,5.86,RU,1715414342
533,borogontsy,62.6683,131.1683,4.85,37,100,2.28,RU,1715414394
534,hammerfest,70.6634,23.6821,4.25,81,40,4.12,NO,1715414395
535,sakakah,29.9697,40.2064,34.76,8,0,5.67,SA,1715414395
536,arar,30.9753,41.0381,32.01,11,0,9.26,SA,1715414396
537,tres palos,18.1833,-101.6167,21.34,72,100,0.81,MX,1715414396
538,puryong,42.0606,129.7117,13.77,74,100,0.96,KP,1715414396
539,kamina,-8.7386,24.9906,27.28,45,55,1.74,CD,1715414397
540,horodok,49.1637,26.5839,14.5,72,99,4.73,UA,1715414102
541,margate,51.3813,1.3862,16.84,90,91,0.89,GB,1715414229
542,portage la prairie,49.9728,-98.2926,8.39,51,74,3.05,CA,1715414398
543,ulanhot,46.0833,122.0833,10.11,60,98,11.4,CN,1715414398
544,northam,51.0333,-4.2167,16.48,82,100,5.13,GB,1715414391
545,mudkhed,19.1667,77.5167,40.07,21,36,4.4,IN,1715414225
546,lorengau,-2.0226,147.2712,26.88,85,100,3.39,PG,1715414399
547,south venice,27.0531,-82.4243,28.01,95,75,4.12,US,1715414400
548,port blair,11.6667,92.75,32.02,74,40,2.06,IN,1715414249
549,longford,53.7333,-7.8,14.31,79,4,3.09,IE,1715414403
550,leshan,29.5623,103.7639,18.22,90,100,0.94,CN,1715414405
551,sawakin,19.1059,37.3321,32.74,65,46,3.59,SD,1715414406
552,el calafate,-50.3408,-72.2768,-1.27,66,20,2.08,AR,1715414407
553,catanzaro,38.8908,16.5987,21.53,60,10,1.12,IT,1715414125
554,kutum,14.2,24.6667,32.28,6,44,3.81,SD,1715414409
555,kimbe,-5.5502,150.1429,26.54,90,98,0.88,PG,1715414414
556,ebon,4.582,168.6964,28.7,75,35,6.09,MH,1715414419
557,at taj,24.2049,23.2857,27.32,19,2,6.98,LY,1715414421
558,santa rosa,14.3122,121.1114,34.5,61,64,6.65,PH,1715414423
559,ponta delgada,37.7333,-25.6667,18.44,88,20,5.14,PT,1715414365
560,okrika,4.7416,7.0849,30.49,72,96,2.95,NG,1715414425
561,cabo san lucas,22.8909,-109.9124,22.56,63,31,6.27,MX,1715414426
562,dampit,-8.2116,112.7493,26.39,85,89,1.77,ID,1715414427
563,akureyri,65.6835,-18.0878,10.24,85,100,2.93,IS,1715414427
564,turkmenbasy,40.0222,52.9552,23.32,31,0,4.77,TM,1715414428
565,kievka,50.2619,71.5514,16.26,25,75,2.82,KZ,1715414429
566,kapa'a,22.0752,-159.319,20.05,87,37,0.89,US,1715414430
567,hermoso campo,-27.6082,-61.3444,16.08,92,100,3.32,AR,1715414432
568,olyokminsk,60.3736,120.4264,7.06,45,100,2.62,RU,1715414433
569,cidreira,-30.1811,-50.2056,17.1,96,100,3.65,BR,1715414434
570,lerwick,60.1545,-1.1494,11.0,87,99,3.29,GB,1715414435
571,alzamay,55.5562,98.6644,25.54,34,100,4.48,RU,1715414435
572,ketchikan,55.3422,-131.6461,6.86,81,5,2.05,US,1715414436
573,rikaze,29.25,88.8833,16.49,10,95,2.34,CN,1715414294
574,merizo village,13.2658,144.6691,29.85,85,31,6.42,GU,1715414437
575,griffith,41.5284,-87.4237,13.38,92,100,0.45,US,1715414439
576,sharhorod,48.7383,28.085,17.05,68,66,6.43,UA,1715414440
577,kincardine,56.0667,-3.7167,18.79,67,18,1.09,GB,1715414440
578,elvas,38.8815,-7.1628,17.58,69,25,2.63,PT,1715414441
579,porto novo,6.4965,2.6036,30.8,69,33,2.95,BJ,1715414442
580,pontes e lacerda,-15.2261,-59.3353,20.36,74,14,0.97,BR,1715414443
581,taounate,34.5,-4.8333,25.07,44,100,0.96,MA,1715414444
582,chifeng,42.2683,118.9636,16.85,30,20,11.75,CN,1715414353
583,livingstone,-17.8419,25.8543,26.87,29,0,2.89,ZM,1715414445
584,inhambane,-23.865,35.3833,27.19,63,2,4.11,MZ,1715414445
585,tabalah,19.95,42.4,33.52,25,8,6.15,SA,1715414446
586,maasin,10.1336,124.8447,30.71,70,21,1.93,PH,1715414446
587,pandan,14.0453,124.1694,30.39,65,39,3.16,PH,1715414447
588,kununurra,-15.7667,128.7333,31.99,43,40,4.12,AU,1715414448
